[{"address": "688 W Hastings St", "school_category": "Independent School", "school_name": "Alexander Academy", "geom": {"type": "Feature", "geometry": {"coordinates": [-123.11400985419304, 49.28500059925005], "type": "Point"}, "properties": {}}, "geo_local_area": "Downtown", "geo_point_2d": {"lon": -123.11400985419304, "lat": 49.28500059925005}},{"address": "3340 E 54th Av", "school_category": "StrongStart BC", "school_name": "Captain James Cook StrongStart Centre", "geom": {"type": "Feature", "geometry": {"coordinates": [-123.03582905, 49.219380799067466], "type": "Point"}, "properties": {}}, "geo_local_area": "Killarney", "geo_point_2d": {"lon": -123.03582905, "lat": 49.219380799067466}},{"address": "3400 Balaclava St", "school_category": "Public School", "school_name": "Carnarvon Community Elementary", "geom": {"type": "Feature", "geometry": {"coordinates": [-123.17355723856548, 49.25658742134096], "type": "Point"}, "properties": {}}, "geo_local_area": "Arbutus Ridge", "geo_point_2d": {"lon": -123.17355723856548, "lat": 49.25658742134096}},{"address": "555 Lillooet St", "school_category": "Public School", "school_name": "Dr A R Lord Elementary", "geom": {"type": "Feature", "geometry": {"coordinates": [-123.03951720287967, 49.27964048422215], "type": "Point"}, "properties": {}}, "geo_local_area": "Hastings-Sunrise", "geo_point_2d": {"lon": -123.03951720287967, "lat": 49.27964048422215}},{"address": "3050 Crown St", "school_category": "Public School", "school_name": "Ecole Jules Quesnel Elementary", "geom": {"type": "Feature", "geometry": {"coordinates": [-123.19253813000002, 49.25956780506763], "type": "Point"}, "properties": {}}, "geo_local_area": "West Point Grey", "geo_point_2d": {"lon": -123.19253813000002, "lat": 49.25956780506763}},{"address": "4196 W 4th Av", "school_category": "Independent School", "school_name": "Family Montessori School", "geom": {"type": "Feature", "geometry": {"coordinates": [-123.1982460233882, 49.267667982326586], "type": "Point"}, "properties": {}}, "geo_local_area": "West Point Grey", "geo_point_2d": {"lon": -123.1982460233882, "lat": 49.267667982326586}},{"address": "2330 E 37th Av", "school_category": "Public School", "school_name": "G T Cunningham Elementary", "geom": {"type": "Feature", "geometry": {"coordinates": [-123.05745595, 49.23673222606754], "type": "Point"}, "properties": {}}, "geo_local_area": "Renfrew-Collingwood", "geo_point_2d": {"lon": -123.05745595, "lat": 49.23673222606754}},{"address": "3663 Penticton St", "school_category": "Public School", "school_name": "Lord Beaconsfield Elementary", "geom": {"type": "Feature", "geometry": {"coordinates": [-123.05269627000001, 49.2521383750676], "type": "Point"}, "properties": {}}, "geo_local_area": "Renfrew-Collingwood", "geo_point_2d": {"lon": -123.05269627000001, "lat": 49.2521383750676}},{"address": "4444 Dumfries St", "school_category": "Public School", "school_name": "Lord Selkirk Annex", "geom": {"type": "Feature", "geometry": {"coordinates": [-123.07246012, 49.24532077406758], "type": "Point"}, "properties": {}}, "geo_local_area": "Kensington-Cedar Cottage", "geo_point_2d": {"lon": -123.07246012, "lat": 49.24532077406758}},{"address": "2300 Guelph St", "school_category": "StrongStart BC", "school_name": "Mount Pleasant StrongStart Centre", "geom": {"type": "Feature", "geometry": {"coordinates": [-123.09399954, 49.26396573206767], "type": "Point"}, "properties": {}}, "geo_local_area": "Mount Pleasant", "geo_point_2d": {"lon": -123.09399954, "lat": 49.26396573206767}},{"address": "4102 W 16th Av", "school_category": "Public School", "school_name": "Queen Elizabeth Elementary", "geom": {"type": "Feature", "geometry": {"coordinates": [-123.20112784000001, 49.257791772067634], "type": "Point"}, "properties": {}}, "geo_local_area": "Dunbar-Southlands", "geo_point_2d": {"lon": -123.20112784000001, "lat": 49.257791772067634}},{"address": "4250 Marguerite St", "school_category": "Public School", "school_name": "Shaughnessy Elementary", "geom": {"type": "Feature", "geometry": {"coordinates": [-123.14380998000001, 49.24867607506759], "type": "Point"}, "properties": {}}, "geo_local_area": "Shaughnessy", "geo_point_2d": {"lon": -123.14380998000001, "lat": 49.24867607506759}},{"address": "419 E 24th Av", "school_category": "Public School", "school_name": "Sir Charles Tupper Secondary", "geom": {"type": "Feature", "geometry": {"coordinates": [-123.09480947999998, 49.249753501067595], "type": "Point"}, "properties": {}}, "geo_local_area": "Riley Park", "geo_point_2d": {"lon": -123.09480947999998, "lat": 49.249753501067595}},{"address": "2215 W 10th Av", "school_category": "Independent School", "school_name": "St John's School", "geom": {"type": "Feature", "geometry": {"coordinates": [-123.1561791428068, 49.26317767149081], "type": "Point"}, "properties": {}}, "geo_local_area": "Kitsilano", "geo_point_2d": {"lon": -123.1561791428068, "lat": 49.26317767149081}},{"address": "5239 Joyce St", "school_category": "Independent School", "school_name": "St Mary's", "geom": {"type": "Feature", "geometry": {"coordinates": [-123.03370590892874, 49.237501631148845], "type": "Point"}, "properties": {}}, "geo_local_area": "Renfrew-Collingwood", "geo_point_2d": {"lon": -123.03370590892874, "lat": 49.237501631148845}},{"address": "115 E 11th Av", "school_category": "Independent School", "school_name": "St Patrick Regional Secondary", "geom": {"type": "Feature", "geometry": {"coordinates": [-123.10260439171995, 49.261404544549904], "type": "Point"}, "properties": {}}, "geo_local_area": "Mount Pleasant", "geo_point_2d": {"lon": -123.10260439171995, "lat": 49.261404544549904}},{"address": "2325 Cassiar St", "school_category": "Public School", "school_name": "Thunderbird Elementary", "geom": {"type": "Feature", "geometry": {"coordinates": [-123.03187058558184, 49.263648890401456], "type": "Point"}, "properties": {}}, "geo_local_area": "Hastings-Sunrise", "geo_point_2d": {"lon": -123.03187058558184, "lat": 49.263648890401456}},{"address": "5400 Cartier St", "school_category": "Independent School", "school_name": "Vancouver College", "geom": {"type": "Feature", "geometry": {"coordinates": [-123.1361713344514, 49.23495941876865], "type": "Point"}, "properties": {}}, "geo_local_area": "Shaughnessy", "geo_point_2d": {"lon": -123.1361713344514, "lat": 49.23495941876865}},{"address": "3075 Slocan St", "school_category": "Independent School", "school_name": "Westside Montessori Academy", "geom": {"type": "Feature", "geometry": {"coordinates": [-123.0503919492473, 49.256937847571606], "type": "Point"}, "properties": {}}, "geo_local_area": "Renfrew-Collingwood", "geo_point_2d": {"lon": -123.0503919492473, "lat": 49.256937847571606}},{"address": "4176 Alexandra St", "school_category": "Independent School", "school_name": "York House School", "geom": {"type": "Feature", "geometry": {"coordinates": [-123.14034013611547, 49.248848218981884], "type": "Point"}, "properties": {}}, "geo_local_area": "Shaughnessy", "geo_point_2d": {"lon": -123.14034013611547, "lat": 49.248848218981884}},{"address": "500 W 20th Av", "school_category": "Public School", "school_name": "Edith Cavell Elementary", "geom": {"type": "Feature", "geometry": {"coordinates": [-123.11722884, 49.25290710906762], "type": "Point"}, "properties": {}}, "geo_local_area": "South Cambie", "geo_point_2d": {"lon": -123.11722884, "lat": 49.25290710906762}},{"address": "801 E 54th Av", "school_category": "Public School", "school_name": "John Henderson Annex", "geom": {"type": "Feature", "geometry": {"coordinates": [-123.08804322, 49.22104214306744], "type": "Point"}, "properties": {}}, "geo_local_area": "Sunset", "geo_point_2d": {"lon": -123.08804322, "lat": 49.22104214306744}},{"address": "1936 W 10th Av", "school_category": "Public School", "school_name": "Lord Tennyson Elementary", "geom": {"type": "Feature", "geometry": {"coordinates": [-123.14937705, 49.262518934067664], "type": "Point"}, "properties": {}}, "geo_local_area": "Kitsilano", "geo_point_2d": {"lon": -123.14937705, "lat": 49.262518934067664}},{"address": "4102 W 16th Av", "school_category": "Public School", "school_name": "Norma Rose Point School", "geom": {"type": "Feature", "geometry": {"coordinates": [-123.20112784000001, 49.257791772067634], "type": "Point"}, "properties": {}}, "geo_local_area": "Dunbar-Southlands", "geo_point_2d": {"lon": -123.20112784000001, "lat": 49.257791772067634}},{"address": "3000 Commercial Drive", "school_category": "Independent School", "school_name": "Stratford Hall", "geom": {"type": "Feature", "geometry": {"coordinates": [-123.06946327228026, 49.257469215545306], "type": "Point"}, "properties": {}}, "geo_local_area": "Kensington-Cedar Cottage", "geo_point_2d": {"lon": -123.06946327228026, "lat": 49.257469215545306}},{"address": "1580 W Broadway", "school_category": "Public School", "school_name": "Vancouver Alternate", "geom": {"type": "Feature", "geometry": {"coordinates": [-123.14026052001878, 49.26329988232251], "type": "Point"}, "properties": {}}, "geo_local_area": "Fairview", "geo_point_2d": {"lon": -123.14026052001878, "lat": 49.26329988232251}},{"address": "2900 E 44th Av", "school_category": "Public School", "school_name": "Dr George M Weir Elementary", "geom": {"type": "Feature", "geometry": {"coordinates": [-123.04440254, 49.22957875906749], "type": "Point"}, "properties": {}}, "geo_local_area": "Killarney", "geo_point_2d": {"lon": -123.04440254, "lat": 49.22957875906749}},{"address": "2625 Franklin St", "school_category": "Public School", "school_name": "Hastings Community Elementary", "geom": {"type": "Feature", "geometry": {"coordinates": [-123.05057740868249, 49.28261095988815], "type": "Point"}, "properties": {}}, "geo_local_area": "Hastings-Sunrise", "geo_point_2d": {"lon": -123.05057740868249, "lat": 49.28261095988815}},{"address": "2300 Guelph St", "school_category": "Public School", "school_name": "Mount Pleasant Elementary", "geom": {"type": "Feature", "geometry": {"coordinates": [-123.09399954, 49.26396573206767], "type": "Point"}, "properties": {}}, "geo_local_area": "Mount Pleasant", "geo_point_2d": {"lon": -123.09399954, "lat": 49.26396573206767}},{"address": "8610 Ash St", "school_category": "Independent School", "school_name": "Royal Canadian College", "geom": {"type": "Feature", "geometry": {"coordinates": [-123.11860774594169, 49.20724201501598], "type": "Point"}, "properties": {}}, "geo_local_area": "Marpole", "geo_point_2d": {"lon": -123.11860774594169, "lat": 49.20724201501598}},{"address": "7668 Borden St", "school_category": "Public School", "school_name": "Sir James Douglas Annex", "geom": {"type": "Feature", "geometry": {"coordinates": [-123.07329351, 49.214830464067425], "type": "Point"}, "properties": {}}, "geo_local_area": "Victoria-Fraserview", "geo_point_2d": {"lon": -123.07329351, "lat": 49.214830464067425}},{"address": "1401 E 49th Av", "school_category": "Public School", "school_name": "Sir Sandford Fleming Elementary", "geom": {"type": "Feature", "geometry": {"coordinates": [-123.07657409, 49.22574768906748], "type": "Point"}, "properties": {}}, "geo_local_area": "Victoria-Fraserview", "geo_point_2d": {"lon": -123.07657409, "lat": 49.22574768906748}},{"address": "3323 Wellington Av", "school_category": "Public School", "school_name": "Sir Wilfred Grenfell Community", "geom": {"type": "Feature", "geometry": {"coordinates": [-123.0348073745407, 49.242891620676865], "type": "Point"}, "properties": {}}, "geo_local_area": "Renfrew-Collingwood", "geo_point_2d": {"lon": -123.0348073745407, "lat": 49.242891620676865}},{"address": "4125 W 8th Av", "school_category": "Independent School", "school_name": "West Point Grey Academy", "geom": {"type": "Feature", "geometry": {"coordinates": [-123.20150739365414, 49.26706634514379], "type": "Point"}, "properties": {}}, "geo_local_area": "West Point Grey", "geo_point_2d": {"lon": -123.20150739365414, "lat": 49.26706634514379}},{"address": "5025 Willow St", "school_category": "Public School", "school_name": "BC Childrens Hosp School Program", "geom": {"type": "Feature", "geometry": {"coordinates": [-123.12579095999999, 49.23963096106753], "type": "Point"}, "properties": {}}, "geo_local_area": "South Cambie", "geo_point_2d": {"lon": -123.12579095999999, "lat": 49.23963096106753}},{"address": "1010 E 17th Av", "school_category": "Public School", "school_name": "Charles Dickens Elementary", "geom": {"type": "Feature", "geometry": {"coordinates": [-123.08239063270196, 49.254854500002445], "type": "Point"}, "properties": {}}, "geo_local_area": "Kensington-Cedar Cottage", "geo_point_2d": {"lon": -123.08239063270196, "lat": 49.254854500002445}},{"address": "3417 Euclid Av", "school_category": "StrongStart BC", "school_name": "Collingwood StrongStart Centre", "geom": {"type": "Feature", "geometry": {"coordinates": [-123.032313, 49.23634859906753], "type": "Point"}, "properties": {}}, "geo_local_area": "Renfrew-Collingwood", "geo_point_2d": {"lon": -123.032313, "lat": 49.23634859906753}},{"address": "438 Terminal Av", "school_category": "Independent School", "school_name": "Columbia College", "geom": {"type": "Feature", "geometry": {"coordinates": [-123.09507768504591, 49.27155962112064], "type": "Point"}, "properties": {}}, "geo_local_area": "Strathcona", "geo_point_2d": {"lon": -123.09507768504591, "lat": 49.27155962112064}},{"address": "7455 Maple St", "school_category": "Public School", "school_name": "Dr R E McKechnie Elementary", "geom": {"type": "Feature", "geometry": {"coordinates": [-123.15401133, 49.21770658906743], "type": "Point"}, "properties": {}}, "geo_local_area": "Kerrisdale", "geo_point_2d": {"lon": -123.15401133, "lat": 49.21770658906743}},{"address": "900 School Green", "school_category": "Public School", "school_name": "False Creek Elementary", "geom": {"type": "Feature", "geometry": {"coordinates": [-123.12685921, 49.26710311106769], "type": "Point"}, "properties": {}}, "geo_local_area": "Fairview", "geo_point_2d": {"lon": -123.12685921, "lat": 49.26710311106769}},{"address": "1025 Slocan St", "school_category": "Public School", "school_name": "Garibaldi Annex", "geom": {"type": "Feature", "geometry": {"coordinates": [-123.05026876999999, 49.27541639106772], "type": "Point"}, "properties": {}}, "geo_local_area": "Hastings-Sunrise", "geo_point_2d": {"lon": -123.05026876999999, "lat": 49.27541639106772}},{"address": "2896 W 6th Av", "school_category": "Public School", "school_name": "General Gordon Elementary", "geom": {"type": "Feature", "geometry": {"coordinates": [-123.17067418, 49.26597990206767], "type": "Point"}, "properties": {}}, "geo_local_area": "Kitsilano", "geo_point_2d": {"lon": -123.17067418, "lat": 49.26597990206767}},{"address": "3745 W 28th Av", "school_category": "Independent School", "school_name": "Immaculate Conception School", "geom": {"type": "Feature", "geometry": {"coordinates": [-123.18770751925071, 49.24759061248421], "type": "Point"}, "properties": {}}, "geo_local_area": "Dunbar-Southlands", "geo_point_2d": {"lon": -123.18770751925071, "lat": 49.24759061248421}},{"address": "7455 Ontario St", "school_category": "Public School", "school_name": "J.W. Sexsmith Community Elementary", "geom": {"type": "Feature", "geometry": {"coordinates": [-123.10879442, 49.21726779206743], "type": "Point"}, "properties": {}}, "geo_local_area": "Marpole", "geo_point_2d": {"lon": -123.10879442, "lat": 49.21726779206743}},{"address": "530 E 41st Av", "school_category": "Public School", "school_name": "John Oliver Secondary", "geom": {"type": "Feature", "geometry": {"coordinates": [-123.09279776, 49.23195715006752], "type": "Point"}, "properties": {}}, "geo_local_area": "Sunset", "geo_point_2d": {"lon": -123.09279776, "lat": 49.23195715006752}},{"address": "3939 W 16th Av", "school_category": "Public School", "school_name": "Lord Byng Secondary", "geom": {"type": "Feature", "geometry": {"coordinates": [-123.1925309529982, 49.259566550086106], "type": "Point"}, "properties": {}}, "geo_local_area": "West Point Grey", "geo_point_2d": {"lon": -123.1925309529982, "lat": 49.259566550086106}},{"address": "2235 Kitchener St", "school_category": "Public School", "school_name": "Lord Nelson Elementary", "geom": {"type": "Feature", "geometry": {"coordinates": [-123.05971209, 49.27250773706771], "type": "Point"}, "properties": {}}, "geo_local_area": "Grandview-Woodland", "geo_point_2d": {"lon": -123.05971209, "lat": 49.27250773706771}},{"address": "1750 E 22nd Av", "school_category": "StrongStart BC", "school_name": "Lord Selkirk StrongStart Centre", "geom": {"type": "Feature", "geometry": {"coordinates": [-123.06900705, 49.249691952067586], "type": "Point"}, "properties": {}}, "geo_local_area": "Kensington-Cedar Cottage", "geo_point_2d": {"lon": -123.06900705, "lat": 49.249691952067586}},{"address": "5750 Oak St", "school_category": "Independent School", "school_name": "Pacific Torah Institute International", "geom": {"type": "Feature", "geometry": {"coordinates": [-123.12761225509908, 49.23342156632536], "type": "Point"}, "properties": {}}, "geo_local_area": "Oakridge", "geo_point_2d": {"lon": -123.12761225509908, "lat": 49.23342156632536}},{"address": "3417 Euclid Av", "school_category": "Public School", "school_name": "Prov. Early Intervention Resource Prg", "geom": {"type": "Feature", "geometry": {"coordinates": [-123.032313, 49.23634859906753], "type": "Point"}, "properties": {}}, "geo_local_area": "Renfrew-Collingwood", "geo_point_2d": {"lon": -123.032313, "lat": 49.23634859906753}},{"address": "1300 E Broadway", "school_category": "StrongStart BC", "school_name": "Queen Alexandra StrongStart Centre", "geom": {"type": "Feature", "geometry": {"coordinates": [-123.07592057, 49.261970549067655], "type": "Point"}, "properties": {}}, "geo_local_area": "Kensington-Cedar Cottage", "geo_point_2d": {"lon": -123.07592057, "lat": 49.261970549067655}},{"address": "2000 Trimble St", "school_category": "Public School", "school_name": "Queen Mary Elementary", "geom": {"type": "Feature", "geometry": {"coordinates": [-123.20479699, 49.26785642206768], "type": "Point"}, "properties": {}}, "geo_local_area": "West Point Grey", "geo_point_2d": {"lon": -123.20479699, "lat": 49.26785642206768}},{"address": "250S Skeena St", "school_category": "Public School", "school_name": "Sir John Franklin Community", "geom": {"type": "Feature", "geometry": {"coordinates": [-123.02758566, 49.28249619606777], "type": "Point"}, "properties": {}}, "geo_local_area": "Hastings-Sunrise", "geo_point_2d": {"lon": -123.02758566, "lat": 49.28249619606777}},{"address": "4175 W 29th Av", "school_category": "Independent School", "school_name": "St George's School", "geom": {"type": "Feature", "geometry": {"coordinates": [-123.19846496388473, 49.24758226745896], "type": "Point"}, "properties": {}}, "geo_local_area": "Dunbar-Southlands", "geo_point_2d": {"lon": -123.19846496388473, "lat": 49.24758226745896}},{"address": "3261 Fleming St", "school_category": "Independent School", "school_name": "St Joseph's", "geom": {"type": "Feature", "geometry": {"coordinates": [-123.0716470523458, 49.255914408245054], "type": "Point"}, "properties": {}}, "geo_local_area": "Kensington-Cedar Cottage", "geo_point_2d": {"lon": -123.0716470523458, "lat": 49.255914408245054}},{"address": "2953 E 15th Av", "school_category": "Independent School", "school_name": "St Jude's", "geom": {"type": "Feature", "geometry": {"coordinates": [-123.04262672835044, 49.256545786691255], "type": "Point"}, "properties": {}}, "geo_local_area": "Renfrew-Collingwood", "geo_point_2d": {"lon": -123.04262672835044, "lat": 49.256545786691255}},{"address": "727 Templeton Drive", "school_category": "Public School", "school_name": "Templeton Secondary", "geom": {"type": "Feature", "geometry": {"coordinates": [-123.06069106000001, 49.278439093067725], "type": "Point"}, "properties": {}}, "geo_local_area": "Grandview-Woodland", "geo_point_2d": {"lon": -123.06069106000001, "lat": 49.278439093067725}},{"address": "2600 E Broadway", "school_category": "Public School", "school_name": "Vancouver Technical Secondary", "geom": {"type": "Feature", "geometry": {"coordinates": [-123.05129983999998, 49.260755475067654], "type": "Point"}, "properties": {}}, "geo_local_area": "Renfrew-Collingwood", "geo_point_2d": {"lon": -123.05129983999998, "lat": 49.260755475067654}},{"address": "4157 Oak St", "school_category": "Independent School", "school_name": "Westside Montessori", "geom": {"type": "Feature", "geometry": {"coordinates": [-123.1280001050362, 49.24857412675284], "type": "Point"}, "properties": {}}, "geo_local_area": "Shaughnessy", "geo_point_2d": {"lon": -123.1280001050362, "lat": 49.24857412675284}},{"address": "1025 Slocan St", "school_category": "Public School", "school_name": "SD 39 DL Elementary", "geom": {"type": "Feature", "geometry": {"coordinates": [-123.05026876999999, 49.27541639106772], "type": "Point"}, "properties": {}}, "geo_local_area": "Hastings-Sunrise", "geo_point_2d": {"lon": -123.05026876999999, "lat": 49.27541639106772}},{"address": "7835 Champlain Crescent", "school_category": "Public School", "school_name": "Champlain Heights Annex", "geom": {"type": "Feature", "geometry": {"coordinates": [-123.03054968939806, 49.2140784317513], "type": "Point"}, "properties": {}}, "geo_local_area": "Killarney", "geo_point_2d": {"lon": -123.03054968939806, "lat": 49.2140784317513}},{"address": "3877 Glen Drive", "school_category": "Public School", "school_name": "Charles Dickens Annex", "geom": {"type": "Feature", "geometry": {"coordinates": [-123.08271031, 49.2502130610676], "type": "Point"}, "properties": {}}, "geo_local_area": "Kensington-Cedar Cottage", "geo_point_2d": {"lon": -123.08271031, "lat": 49.2502130610676}},{"address": "3200 W 41st Av", "school_category": "Independent School", "school_name": "Crofton House", "geom": {"type": "Feature", "geometry": {"coordinates": [-123.17721815907593, 49.233677833584544], "type": "Point"}, "properties": {}}, "geo_local_area": "Kerrisdale", "geo_point_2d": {"lon": -123.17721815907593, "lat": 49.233677833584544}},{"address": "315 E 23rd Av", "school_category": "Public School", "school_name": "David Livingstone Elementary", "geom": {"type": "Feature", "geometry": {"coordinates": [-123.09798144, 49.2507533360676], "type": "Point"}, "properties": {}}, "geo_local_area": "Riley Park", "geo_point_2d": {"lon": -123.09798144, "lat": 49.2507533360676}},{"address": "5025 Willow St", "school_category": "Public School", "school_name": "G F Strong School Program", "geom": {"type": "Feature", "geometry": {"coordinates": [-123.12579095999999, 49.23963096106753], "type": "Point"}, "properties": {}}, "geo_local_area": "South Cambie", "geo_point_2d": {"lon": -123.12579095999999, "lat": 49.23963096106753}},{"address": "4860 Main St", "school_category": "Public School", "school_name": "General Brock Elementary", "geom": {"type": "Feature", "geometry": {"coordinates": [-123.10063141, 49.24121522106756], "type": "Point"}, "properties": {}}, "geo_local_area": "Riley Park", "geo_point_2d": {"lon": -123.10063141, "lat": 49.24121522106756}},{"address": "1750 E 22nd Av", "school_category": "Public School", "school_name": "Lord Selkirk Elementary", "geom": {"type": "Feature", "geometry": {"coordinates": [-123.06900705, 49.249691952067586], "type": "Point"}, "properties": {}}, "geo_local_area": "Kensington-Cedar Cottage", "geo_point_2d": {"lon": -123.06900705, "lat": 49.249691952067586}},{"address": "981 Nelson St", "school_category": "Independent School", "school_name": "Pattison High School", "geom": {"type": "Feature", "geometry": {"coordinates": [-123.12511331828341, 49.28108362095662], "type": "Point"}, "properties": {}}, "geo_local_area": "Downtown", "geo_point_2d": {"lon": -123.12511331828341, "lat": 49.28108362095662}},{"address": "981 Nelson St", "school_category": "Independent School", "school_name": "Pattison School", "geom": {"type": "Feature", "geometry": {"coordinates": [-123.12511331828341, 49.28108362095662], "type": "Point"}, "properties": {}}, "geo_local_area": "Downtown", "geo_point_2d": {"lon": -123.12511331828341, "lat": 49.28108362095662}},{"address": "6901 Elliott St", "school_category": "Public School", "school_name": "Sir Charles Kingsford-Smith", "geom": {"type": "Feature", "geometry": {"coordinates": [-123.0557042, 49.221596673067474], "type": "Point"}, "properties": {}}, "geo_local_area": "Victoria-Fraserview", "geo_point_2d": {"lon": -123.0557042, "lat": 49.221596673067474}},{"address": "428 Great Northern Way", "school_category": "Independent School", "school_name": "St Francis Xavier", "geom": {"type": "Feature", "geometry": {"coordinates": [-123.09452064422761, 49.26646231107508], "type": "Point"}, "properties": {}}, "geo_local_area": "Mount Pleasant", "geo_point_2d": {"lon": -123.09452064422761, "lat": 49.26646231107508}},{"address": "788 Beatty St", "school_category": "Independent School", "school_name": "The Westside School", "geom": {"type": "Feature", "geometry": {"coordinates": [-123.11344354347607, 49.27757064431133], "type": "Point"}, "properties": {}}, "geo_local_area": "Downtown", "geo_point_2d": {"lon": -123.11344354347607, "lat": 49.27757064431133}},{"address": "1100 Bidwell St", "school_category": "Public School", "school_name": "Lord Roberts Elementary", "geom": {"type": "Feature", "geometry": {"coordinates": [-123.13784476, 49.28678528206777], "type": "Point"}, "properties": {}}, "geo_local_area": "West End", "geo_point_2d": {"lon": -123.13784476, "lat": 49.28678528206777}},{"address": "1300 E Broadway", "school_category": "Public School", "school_name": "Queen Alexandra Elementary", "geom": {"type": "Feature", "geometry": {"coordinates": [-123.07592057, 49.261970549067655], "type": "Point"}, "properties": {}}, "geo_local_area": "Kensington-Cedar Cottage", "geo_point_2d": {"lon": -123.07592057, "lat": 49.261970549067655}},{"address": "5300 Maple St", "school_category": "Public School", "school_name": "Quilchena Elementary", "geom": {"type": "Feature", "geometry": {"coordinates": [-123.15157081, 49.23724621006754], "type": "Point"}, "properties": {}}, "geo_local_area": "Shaughnessy", "geo_point_2d": {"lon": -123.15157081, "lat": 49.23724621006754}},{"address": "100 W 15th Av", "school_category": "Public School", "school_name": "Simon Fraser Elementary", "geom": {"type": "Feature", "geometry": {"coordinates": [-123.10819689943345, 49.25717135541721], "type": "Point"}, "properties": {}}, "geo_local_area": "Mount Pleasant", "geo_point_2d": {"lon": -123.10819689943345, "lat": 49.25717135541721}},{"address": "960 E 39th Av", "school_category": "StrongStart BC", "school_name": "Sir Alexander Mackenzie StrongStart", "geom": {"type": "Feature", "geometry": {"coordinates": [-123.08671432, 49.23453643506752], "type": "Point"}, "properties": {}}, "geo_local_area": "Kensington-Cedar Cottage", "geo_point_2d": {"lon": -123.08671432, "lat": 49.23453643506752}},{"address": "7350 Laurel St", "school_category": "Public School", "school_name": "Sir Wilfrid Laurier Elementary", "geom": {"type": "Feature", "geometry": {"coordinates": [-123.12504721, 49.21776253406744], "type": "Point"}, "properties": {}}, "geo_local_area": "Marpole", "geo_point_2d": {"lon": -123.12504721, "lat": 49.21776253406744}},{"address": "1850 E 41st Av", "school_category": "Public School", "school_name": "Tecumseh Elementary", "geom": {"type": "Feature", "geometry": {"coordinates": [-123.06800394, 49.2320557420675], "type": "Point"}, "properties": {}}, "geo_local_area": "Victoria-Fraserview", "geo_point_2d": {"lon": -123.06800394, "lat": 49.2320557420675}},{"address": "2325 Cassiar St", "school_category": "StrongStart BC", "school_name": "Thunderbird StrongStart Centre", "geom": {"type": "Feature", "geometry": {"coordinates": [-123.03187058558184, 49.263648890401456], "type": "Point"}, "properties": {}}, "geo_local_area": "Hastings-Sunrise", "geo_point_2d": {"lon": -123.03187058558184, "lat": 49.263648890401456}},{"address": "4170 Trafalgar St", "school_category": "Public School", "school_name": "Trafalgar Elementary", "geom": {"type": "Feature", "geometry": {"coordinates": [-123.16460607, 49.250178756067605], "type": "Point"}, "properties": {}}, "geo_local_area": "Arbutus Ridge", "geo_point_2d": {"lon": -123.16460607, "lat": 49.250178756067605}},{"address": "15 N Renfrew St", "school_category": "Independent School", "school_name": "West Coast Christian School", "geom": {"type": "Feature", "geometry": {"coordinates": [-123.04453612333309, 49.284984466234356], "type": "Point"}, "properties": {}}, "geo_local_area": "Hastings-Sunrise", "geo_point_2d": {"lon": -123.04453612333309, "lat": 49.284984466234356}},{"address": "1755 E 55th Av", "school_category": "Public School", "school_name": "David Thompson Secondary", "geom": {"type": "Feature", "geometry": {"coordinates": [-123.07063159999998, 49.220439256067465], "type": "Point"}, "properties": {}}, "geo_local_area": "Victoria-Fraserview", "geo_point_2d": {"lon": -123.07063159999998, "lat": 49.220439256067465}},{"address": "6350 Tisdall St", "school_category": "Public School", "school_name": "Dr Annie B Jamieson Elementary", "geom": {"type": "Feature", "geometry": {"coordinates": [-123.12100426, 49.22690693506749], "type": "Point"}, "properties": {}}, "geo_local_area": "Oakridge", "geo_point_2d": {"lon": -123.12100426, "lat": 49.22690693506749}},{"address": "4070 Oak St", "school_category": "Public School", "school_name": "Emily Carr Elementary", "geom": {"type": "Feature", "geometry": {"coordinates": [-123.12609640999999, 49.2500416520676], "type": "Point"}, "properties": {}}, "geo_local_area": "South Cambie", "geo_point_2d": {"lon": -123.12609640999999, "lat": 49.2500416520676}},{"address": "2294 W 10th Av", "school_category": "Independent School", "school_name": "Fraser Academy", "geom": {"type": "Feature", "geometry": {"coordinates": [-123.15727596082289, 49.26266070419338], "type": "Point"}, "properties": {}}, "geo_local_area": "Kitsilano", "geo_point_2d": {"lon": -123.15727596082289, "lat": 49.26266070419338}},{"address": "1755 Barclay St", "school_category": "Public School", "school_name": "King George Secondary", "geom": {"type": "Feature", "geometry": {"coordinates": [-123.13644517, 49.28982415206781], "type": "Point"}, "properties": {}}, "geo_local_area": "West End", "geo_point_2d": {"lon": -123.13644517, "lat": 49.28982415206781}},{"address": "3455 W King Edward Av", "school_category": "Public School", "school_name": "Lord Kitchener Elementary", "geom": {"type": "Feature", "geometry": {"coordinates": [-123.18024556263893, 49.250581806373596], "type": "Point"}, "properties": {}}, "geo_local_area": "Dunbar-Southlands", "geo_point_2d": {"lon": -123.18024556263893, "lat": 49.250581806373596}},{"address": "2678 W Broadway", "school_category": "Independent School", "school_name": "Madrona School", "geom": {"type": "Feature", "geometry": {"coordinates": [-123.16601055529476, 49.263528260800655], "type": "Point"}, "properties": {}}, "geo_local_area": "Kitsilano", "geo_point_2d": {"lon": -123.16601055529476, "lat": 49.263528260800655}},{"address": "1580 W Broadway", "school_category": "Public School", "school_name": "Peak House", "geom": {"type": "Feature", "geometry": {"coordinates": [-123.14026052001878, 49.26329988232251], "type": "Point"}, "properties": {}}, "geo_local_area": "Fairview", "geo_point_2d": {"lon": -123.14026052001878, "lat": 49.26329988232251}},{"address": "1850 E 3rd Av", "school_category": "Public School", "school_name": "Queen Victoria Annex", "geom": {"type": "Feature", "geometry": {"coordinates": [-123.06634874, 49.267187849067696], "type": "Point"}, "properties": {}}, "geo_local_area": "Grandview-Woodland", "geo_point_2d": {"lon": -123.06634874, "lat": 49.267187849067696}},{"address": "3315 E 22nd Av", "school_category": "Public School", "school_name": "Renfrew Community Elementary", "geom": {"type": "Feature", "geometry": {"coordinates": [-123.03205805, 49.25145777406758], "type": "Point"}, "properties": {}}, "geo_local_area": "Renfrew-Collingwood", "geo_point_2d": {"lon": -123.03205805, "lat": 49.25145777406758}},{"address": "5855 Ontario St", "school_category": "Public School", "school_name": "Sir Wm Van Horne Elementary", "geom": {"type": "Feature", "geometry": {"coordinates": [-123.10656921, 49.23156648606752], "type": "Point"}, "properties": {}}, "geo_local_area": "Oakridge", "geo_point_2d": {"lon": -123.10656921, "lat": 49.23156648606752}},{"address": "1370 W 73rd Av", "school_category": "Independent School", "school_name": "St Anthony of Padua", "geom": {"type": "Feature", "geometry": {"coordinates": [-123.13700792036838, 49.20446493818909], "type": "Point"}, "properties": {}}, "geo_local_area": "Marpole", "geo_point_2d": {"lon": -123.13700792036838, "lat": 49.20446493818909}},{"address": "2850 Quebec St", "school_category": "Independent School", "school_name": "St Patrick's Elementary", "geom": {"type": "Feature", "geometry": {"coordinates": [-123.1024366967439, 49.259762302830595], "type": "Point"}, "properties": {}}, "geo_local_area": "Mount Pleasant", "geo_point_2d": {"lon": -123.1024366967439, "lat": 49.259762302830595}},{"address": "3525 Dumphries St", "school_category": "Public School", "school_name": "Tyee Elementary", "geom": {"type": "Feature", "geometry": {"coordinates": [-123.07382164, 49.25356935406761], "type": "Point"}, "properties": {}}, "geo_local_area": "Kensington-Cedar Cottage", "geo_point_2d": {"lon": -123.07382164, "lat": 49.25356935406761}},{"address": "1545 W 62nd Av", "school_category": "Independent School", "school_name": "Vancouver Hebrew Academy", "geom": {"type": "Feature", "geometry": {"coordinates": [-123.1413692647842, 49.21547172757715], "type": "Point"}, "properties": {}}, "geo_local_area": "Marpole", "geo_point_2d": {"lon": -123.1413692647842, "lat": 49.21547172757715}},{"address": "1000 E 59th Av", "school_category": "Public School", "school_name": "Walter Moberly Elementary", "geom": {"type": "Feature", "geometry": {"coordinates": [-123.08434542, 49.216109230067424], "type": "Point"}, "properties": {}}, "geo_local_area": "Sunset", "geo_point_2d": {"lon": -123.08434542, "lat": 49.216109230067424}},{"address": "1130 Keefer St", "school_category": "StrongStart BC", "school_name": "Admiral Seymour StrongStart Centre", "geom": {"type": "Feature", "geometry": {"coordinates": [-123.08031429999998, 49.27859426906773], "type": "Point"}, "properties": {}}, "geo_local_area": "Strathcona", "geo_point_2d": {"lon": -123.08031429999998, "lat": 49.27859426906773}},{"address": "2251 Collingwood St", "school_category": "Public School", "school_name": "Bayview Community Elementary", "geom": {"type": "Feature", "geometry": {"coordinates": [-123.18233379, 49.26648700606768], "type": "Point"}, "properties": {}}, "geo_local_area": "Kitsilano", "geo_point_2d": {"lon": -123.18233379, "lat": 49.26648700606768}},{"address": "1690 Matthews Av", "school_category": "Public School", "school_name": "Canuck Place School Program", "geom": {"type": "Feature", "geometry": {"coordinates": [-123.14306239951357, 49.251669525820965], "type": "Point"}, "properties": {}}, "geo_local_area": "Shaughnessy", "geo_point_2d": {"lon": -123.14306239951357, "lat": 49.251669525820965}},{"address": "2684 E 2nd Av", "school_category": "Public School", "school_name": "Chief Maquinna Elementary", "geom": {"type": "Feature", "geometry": {"coordinates": [-123.05058984, 49.26788631306769], "type": "Point"}, "properties": {}}, "geo_local_area": "Hastings-Sunrise", "geo_point_2d": {"lon": -123.05058984, "lat": 49.26788631306769}},{"address": "8370 Cartier St", "school_category": "StrongStart BC", "school_name": "David Lloyd George StrongStart Centre", "geom": {"type": "Feature", "geometry": {"coordinates": [-123.13634890999998, 49.209962411067416], "type": "Point"}, "properties": {}}, "geo_local_area": "Marpole", "geo_point_2d": {"lon": -123.13634890999998, "lat": 49.209962411067416}},{"address": "801 E 54th Av", "school_category": "StrongStart BC", "school_name": "John Henderson StrongStart Centre", "geom": {"type": "Feature", "geometry": {"coordinates": [-123.08804322, 49.22104214306744], "type": "Point"}, "properties": {}}, "geo_local_area": "Sunset", "geo_point_2d": {"lon": -123.08804322, "lat": 49.22104214306744}},{"address": "2550 W 10th Av", "school_category": "Public School", "school_name": "Kitsilano Secondary", "geom": {"type": "Feature", "geometry": {"coordinates": [-123.16358941, 49.262654772067656], "type": "Point"}, "properties": {}}, "geo_local_area": "Kitsilano", "geo_point_2d": {"lon": -123.16358941, "lat": 49.262654772067656}},{"address": "6360 Maple St", "school_category": "Public School", "school_name": "Magee Secondary", "geom": {"type": "Feature", "geometry": {"coordinates": [-123.15153798760876, 49.22855386506042], "type": "Point"}, "properties": {}}, "geo_local_area": "Kerrisdale", "geo_point_2d": {"lon": -123.15153798760876, "lat": 49.22855386506042}},{"address": "2409 E Pender St", "school_category": "Independent School", "school_name": "PALS Autism School", "geom": {"type": "Feature", "geometry": {"coordinates": [-123.05595432992459, 49.28051480952856], "type": "Point"}, "properties": {}}, "geo_local_area": "Hastings-Sunrise", "geo_point_2d": {"lon": -123.05595432992459, "lat": 49.28051480952856}},{"address": "4196 W 4th Av", "school_category": "Independent School", "school_name": "Pacific Spirit School", "geom": {"type": "Feature", "geometry": {"coordinates": [-123.1982460233882, 49.267667982326586], "type": "Point"}, "properties": {}}, "geo_local_area": "West Point Grey", "geo_point_2d": {"lon": -123.1982460233882, "lat": 49.267667982326586}},{"address": "449 E 62nd Av", "school_category": "Public School", "school_name": "Pierre Elliott Trudeau Elementary", "geom": {"type": "Feature", "geometry": {"coordinates": [-123.096959, 49.21445400406743], "type": "Point"}, "properties": {}}, "geo_local_area": "Sunset", "geo_point_2d": {"lon": -123.096959, "lat": 49.21445400406743}},{"address": "450 E 47th Av", "school_category": "Independent School", "school_name": "St Andrew's", "geom": {"type": "Feature", "geometry": {"coordinates": [-123.09585589038312, 49.22721361145612], "type": "Point"}, "properties": {}}, "geo_local_area": "Sunset", "geo_point_2d": {"lon": -123.09585589038312, "lat": 49.22721361145612}},{"address": "870 Victoria Drive", "school_category": "Independent School", "school_name": "St Francis of Assisi", "geom": {"type": "Feature", "geometry": {"coordinates": [-123.06504858875364, 49.276881634743646], "type": "Point"}, "properties": {}}, "geo_local_area": "Grandview-Woodland", "geo_point_2d": {"lon": -123.06504858875364, "lat": 49.276881634743646}},{"address": "5400 Cartier St", "school_category": "Independent School", "school_name": "Vancouver College DL", "geom": {"type": "Feature", "geometry": {"coordinates": [-123.1361713344514, 49.23495941876865], "type": "Point"}, "properties": {}}, "geo_local_area": "Shaughnessy", "geo_point_2d": {"lon": -123.1361713344514, "lat": 49.23495941876865}},{"address": "5621 Killarney St", "school_category": "Independent School", "school_name": "Vancouver Formosa Academy", "geom": {"type": "Feature", "geometry": {"coordinates": [-123.04636736023019, 49.233747421132286], "type": "Point"}, "properties": {}}, "geo_local_area": "Renfrew-Collingwood", "geo_point_2d": {"lon": -123.04636736023019, "lat": 49.233747421132286}},{"address": "6111 Elliott St", "school_category": "Public School", "school_name": "Waverley Elementary", "geom": {"type": "Feature", "geometry": {"coordinates": [-123.05578593, 49.22783722506748], "type": "Point"}, "properties": {}}, "geo_local_area": "Victoria-Fraserview", "geo_point_2d": {"lon": -123.05578593, "lat": 49.22783722506748}},{"address": "6111 Elliott St", "school_category": "StrongStart BC", "school_name": "Waverley StrongStart Centre", "geom": {"type": "Feature", "geometry": {"coordinates": [-123.05578593, 49.22783722506748], "type": "Point"}, "properties": {}}, "geo_local_area": "Victoria-Fraserview", "geo_point_2d": {"lon": -123.05578593, "lat": 49.22783722506748}},{"address": "3274 East Boulevard", "school_category": "Independent School", "school_name": "York House Little School", "geom": {"type": "Feature", "geometry": {"coordinates": [-123.152101, 49.25670999906763], "type": "Point"}, "properties": {}}, "geo_local_area": "Shaughnessy", "geo_point_2d": {"lon": -123.152101, "lat": 49.25670999906763}},{"address": "2150 Brigadoon Av", "school_category": "Public School", "school_name": "Sir James Douglas Elementary", "geom": {"type": "Feature", "geometry": {"coordinates": [-123.0646531767478, 49.21604932869144], "type": "Point"}, "properties": {}}, "geo_local_area": "Victoria-Fraserview", "geo_point_2d": {"lon": -123.0646531767478, "lat": 49.21604932869144}},{"address": "5025 Willow St", "school_category": "Public School", "school_name": "BC Children's Adol. Psych. Unit", "geom": {"type": "Feature", "geometry": {"coordinates": [-123.12579095999999, 49.23963096106753], "type": "Point"}, "properties": {}}, "geo_local_area": "South Cambie", "geo_point_2d": {"lon": -123.12579095999999, "lat": 49.23963096106753}},{"address": "1001 Cotton Drive", "school_category": "Public School", "school_name": "Britannia Community Secondary", "geom": {"type": "Feature", "geometry": {"coordinates": [-123.07192309841, 49.27523599085204], "type": "Point"}, "properties": {}}, "geo_local_area": "Grandview-Woodland", "geo_point_2d": {"lon": -123.07192309841, "lat": 49.27523599085204}},{"address": "3340 E 54th Av", "school_category": "Public School", "school_name": "Captain James Cook Elementary", "geom": {"type": "Feature", "geometry": {"coordinates": [-123.03582905, 49.219380799067466], "type": "Point"}, "properties": {}}, "geo_local_area": "Killarney", "geo_point_2d": {"lon": -123.03582905, "lat": 49.219380799067466}},{"address": "2684 E 2nd Av", "school_category": "StrongStart BC", "school_name": "Chief Maquinna StrongStart Centre", "geom": {"type": "Feature", "geometry": {"coordinates": [-123.05058984, 49.26788631306769], "type": "Point"}, "properties": {}}, "geo_local_area": "Hastings-Sunrise", "geo_point_2d": {"lon": -123.05058984, "lat": 49.26788631306769}},{"address": "3575 Kaslo St", "school_category": "Independent School", "school_name": "Children's Hearing and Speech Centre BC", "geom": {"type": "Feature", "geometry": {"coordinates": [-123.0483494372457, 49.25235796846878], "type": "Point"}, "properties": {}}, "geo_local_area": "Renfrew-Collingwood", "geo_point_2d": {"lon": -123.0483494372457, "lat": 49.25235796846878}},{"address": "3417 Euclid Av", "school_category": "Public School", "school_name": "Collingwood Neighbourhood School", "geom": {"type": "Feature", "geometry": {"coordinates": [-123.032313, 49.23634859906753], "type": "Point"}, "properties": {}}, "geo_local_area": "Renfrew-Collingwood", "geo_point_2d": {"lon": -123.032313, "lat": 49.23634859906753}},{"address": "150 Drake St", "school_category": "Public School", "school_name": "Elsie Roy Elementary", "geom": {"type": "Feature", "geometry": {"coordinates": [-123.122482, 49.27223799906772], "type": "Point"}, "properties": {}}, "geo_local_area": "Downtown", "geo_point_2d": {"lon": -123.122482, "lat": 49.27223799906772}},{"address": "3633 Tanner St", "school_category": "Public School", "school_name": "Graham Bruce Community Elementary", "geom": {"type": "Feature", "geometry": {"coordinates": [-123.02567271, 49.24206908706756], "type": "Point"}, "properties": {}}, "geo_local_area": "Renfrew-Collingwood", "geo_point_2d": {"lon": -123.02567271, "lat": 49.24206908706756}},{"address": "1551 Cypress St", "school_category": "Public School", "school_name": "Henry Hudson Elementary", "geom": {"type": "Feature", "geometry": {"coordinates": [-123.14935629, 49.2722458780677], "type": "Point"}, "properties": {}}, "geo_local_area": "Kitsilano", "geo_point_2d": {"lon": -123.14935629, "lat": 49.2722458780677}},{"address": "2490 W 37th Av", "school_category": "Independent School", "school_name": "Ivy Montessori School", "geom": {"type": "Feature", "geometry": {"coordinates": [-123.16209828723368, 49.238114800850234], "type": "Point"}, "properties": {}}, "geo_local_area": "Arbutus Ridge", "geo_point_2d": {"lon": -123.16209828723368, "lat": 49.238114800850234}},{"address": "451 E 53rd Av", "school_category": "Public School", "school_name": "John Henderson Elementary", "geom": {"type": "Feature", "geometry": {"coordinates": [-123.09527169, 49.222569588067465], "type": "Point"}, "properties": {}}, "geo_local_area": "Sunset", "geo_point_2d": {"lon": -123.09527169, "lat": 49.222569588067465}},{"address": "4710 Slocan St", "school_category": "Public School", "school_name": "John Norquay Elementary", "geom": {"type": "Feature", "geometry": {"coordinates": [-123.0516408, 49.24142469506758], "type": "Point"}, "properties": {}}, "geo_local_area": "Renfrew-Collingwood", "geo_point_2d": {"lon": -123.0516408, "lat": 49.24142469506758}},{"address": "5718 Willow St", "school_category": "Independent School", "school_name": "King David High School", "geom": {"type": "Feature", "geometry": {"coordinates": [-123.1227909397854, 49.23344818232933], "type": "Point"}, "properties": {}}, "geo_local_area": "Oakridge", "geo_point_2d": {"lon": -123.1227909397854, "lat": 49.23344818232933}},{"address": "4195 Alexandra St", "school_category": "Independent School", "school_name": "Little Flower Academy", "geom": {"type": "Feature", "geometry": {"coordinates": [-123.14226149913934, 49.24843134181949], "type": "Point"}, "properties": {}}, "geo_local_area": "Shaughnessy", "geo_point_2d": {"lon": -123.14226149913934, "lat": 49.24843134181949}},{"address": "1150 Nelson St", "school_category": "Public School", "school_name": "Lord Roberts Annex", "geom": {"type": "Feature", "geometry": {"coordinates": [-123.12980600999998, 49.283091710067765], "type": "Point"}, "properties": {}}, "geo_local_area": "West End", "geo_point_2d": {"lon": -123.12980600999998, "lat": 49.283091710067765}},{"address": "2550 Camosun St", "school_category": "Independent School", "school_name": "Our Lady of Perpetual Help", "geom": {"type": "Feature", "geometry": {"coordinates": [-123.19617943097614, 49.264135070670505], "type": "Point"}, "properties": {}}, "geo_local_area": "West Point Grey", "geo_point_2d": {"lon": -123.19617943097614, "lat": 49.264135070670505}},{"address": "1819 Larch St", "school_category": "Independent School", "school_name": "Pacific Rim Montessori Academy", "geom": {"type": "Feature", "geometry": {"coordinates": [-123.16244364510744, 49.269785798267485], "type": "Point"}, "properties": {}}, "geo_local_area": "Kitsilano", "geo_point_2d": {"lon": -123.16244364510744, "lat": 49.269785798267485}},{"address": "960 E 39th Av", "school_category": "Public School", "school_name": "Sir Alexander Mackenzie Elementary", "geom": {"type": "Feature", "geometry": {"coordinates": [-123.08671432, 49.23453643506752], "type": "Point"}, "properties": {}}, "geo_local_area": "Kensington-Cedar Cottage", "geo_point_2d": {"lon": -123.08671432, "lat": 49.23453643506752}},{"address": "3250 Kingsway", "school_category": "Public School", "school_name": "Sir Guy Carleton Community Elementary", "geom": {"type": "Feature", "geometry": {"coordinates": [-123.03760798, 49.234347746067506], "type": "Point"}, "properties": {}}, "geo_local_area": "Renfrew-Collingwood", "geo_point_2d": {"lon": -123.03760798, "lat": 49.234347746067506}},{"address": "1300 E 29th Av", "school_category": "Public School", "school_name": "Sir Richard McBride Elementary", "geom": {"type": "Feature", "geometry": {"coordinates": [-123.07817551, 49.244156609067566], "type": "Point"}, "properties": {}}, "geo_local_area": "Kensington-Cedar Cottage", "geo_point_2d": {"lon": -123.07817551, "lat": 49.244156609067566}},{"address": "1950 E Hastings St", "school_category": "Public School", "school_name": "Sir William Macdonald Community", "geom": {"type": "Feature", "geometry": {"coordinates": [-123.06467911, 49.280723909067746], "type": "Point"}, "properties": {}}, "geo_local_area": "Grandview-Woodland", "geo_point_2d": {"lon": -123.06467911, "lat": 49.280723909067746}},{"address": "7055 Heather St", "school_category": "Public School", "school_name": "Sir Winston Churchill Secondary", "geom": {"type": "Feature", "geometry": {"coordinates": [-123.12561546, 49.22105956806746], "type": "Point"}, "properties": {}}, "geo_local_area": "Oakridge", "geo_point_2d": {"lon": -123.12561546, "lat": 49.22105956806746}},{"address": "3155 E 27th Av", "school_category": "Public School", "school_name": "Sunny Hill Hospital Program", "geom": {"type": "Feature", "geometry": {"coordinates": [-123.0371743, 49.246512456067585], "type": "Point"}, "properties": {}}, "geo_local_area": "Renfrew-Collingwood", "geo_point_2d": {"lon": -123.0371743, "lat": 49.246512456067585}},{"address": "3496 Mons Drive", "school_category": "Independent School", "school_name": "Vancouver Christian", "geom": {"type": "Feature", "geometry": {"coordinates": [-123.02856693112142, 49.25471221591419], "type": "Point"}, "properties": {}}, "geo_local_area": "Renfrew-Collingwood", "geo_point_2d": {"lon": -123.02856693112142, "lat": 49.25471221591419}},{"address": "8650 Barnard St", "school_category": "Independent School", "school_name": "Vancouver Montessori School", "geom": {"type": "Feature", "geometry": {"coordinates": [-123.14463359946043, 49.20779039590787], "type": "Point"}, "properties": {}}, "geo_local_area": "Marpole", "geo_point_2d": {"lon": -123.14463359946043, "lat": 49.20779039590787}},{"address": "6955 Frontenac St", "school_category": "Public School", "school_name": "Champlain Heights Community Elementary", "geom": {"type": "Feature", "geometry": {"coordinates": [-123.02774835, 49.22064030106746], "type": "Point"}, "properties": {}}, "geo_local_area": "Killarney", "geo_point_2d": {"lon": -123.02774835, "lat": 49.22064030106746}},{"address": "1580 W Broadway", "school_category": "Public School", "school_name": "Continuing Ed SD 39", "geom": {"type": "Feature", "geometry": {"coordinates": [-123.14026052001878, 49.26329988232251], "type": "Point"}, "properties": {}}, "geo_local_area": "Fairview", "geo_point_2d": {"lon": -123.14026052001878, "lat": 49.26329988232251}},{"address": "6344 Nanaimo St", "school_category": "Independent School", "school_name": "Corpus Christi School", "geom": {"type": "Feature", "geometry": {"coordinates": [-123.05758354036608, 49.226406104158166], "type": "Point"}, "properties": {}}, "geo_local_area": "Victoria-Fraserview", "geo_point_2d": {"lon": -123.05758354036608, "lat": 49.226406104158166}},{"address": "8370 Cartier St", "school_category": "Public School", "school_name": "David Lloyd George Elementary", "geom": {"type": "Feature", "geometry": {"coordinates": [-123.13634890999998, 49.209962411067416], "type": "Point"}, "properties": {}}, "geo_local_area": "Marpole", "geo_point_2d": {"lon": -123.13634890999998, "lat": 49.209962411067416}},{"address": "2421 Scarboro Av", "school_category": "Public School", "school_name": "David Oppenheimer Elementary", "geom": {"type": "Feature", "geometry": {"coordinates": [-123.05829331021336, 49.21331811031946], "type": "Point"}, "properties": {}}, "geo_local_area": "Victoria-Fraserview", "geo_point_2d": {"lon": -123.05829331021336, "lat": 49.21331811031946}},{"address": "5025 Willow St", "school_category": "Public School", "school_name": "Eric Hamber Secondary", "geom": {"type": "Feature", "geometry": {"coordinates": [-123.12579095999999, 49.23963096106753], "type": "Point"}, "properties": {}}, "geo_local_area": "South Cambie", "geo_point_2d": {"lon": -123.12579095999999, "lat": 49.23963096106753}},{"address": "2740 Guelph St", "school_category": "StrongStart BC", "school_name": "Florence Nightingale StrongStart Centre", "geom": {"type": "Feature", "geometry": {"coordinates": [-123.09371757, 49.260059324067655], "type": "Point"}, "properties": {}}, "geo_local_area": "Mount Pleasant", "geo_point_2d": {"lon": -123.09371757, "lat": 49.260059324067655}},{"address": "4105 Gladstone St", "school_category": "Public School", "school_name": "Gladstone Secondary", "geom": {"type": "Feature", "geometry": {"coordinates": [-123.06163307000001, 49.24761203506759], "type": "Point"}, "properties": {}}, "geo_local_area": "Kensington-Cedar Cottage", "geo_point_2d": {"lon": -123.06163307000001, "lat": 49.24761203506759}},{"address": "3250 W 43rd Av", "school_category": "Public School", "school_name": "Kerrisdale Annex", "geom": {"type": "Feature", "geometry": {"coordinates": [-123.177405, 49.232867999067516], "type": "Point"}, "properties": {}}, "geo_local_area": "Kerrisdale", "geo_point_2d": {"lon": -123.177405, "lat": 49.232867999067516}},{"address": "1166 W 14th Av", "school_category": "Public School", "school_name": "L'Ecole Bilingue Elementary", "geom": {"type": "Feature", "geometry": {"coordinates": [-123.13038640000002, 49.25808403306762], "type": "Point"}, "properties": {}}, "geo_local_area": "Fairview", "geo_point_2d": {"lon": -123.13038640000002, "lat": 49.25808403306762}},{"address": "2235 Kitchener St", "school_category": "StrongStart BC", "school_name": "Lord Nelson StrongStart Centre", "geom": {"type": "Feature", "geometry": {"coordinates": [-123.05971209, 49.27250773706771], "type": "Point"}, "properties": {}}, "geo_local_area": "Grandview-Woodland", "geo_point_2d": {"lon": -123.05971209, "lat": 49.27250773706771}},{"address": "3375 Nootka St", "school_category": "Public School", "school_name": "Nootka Community Elementary", "geom": {"type": "Feature", "geometry": {"coordinates": [-123.04294917, 49.25359297006762], "type": "Point"}, "properties": {}}, "geo_local_area": "Renfrew-Collingwood", "geo_point_2d": {"lon": -123.04294917, "lat": 49.25359297006762}},{"address": "2880 Venables St", "school_category": "Independent School", "school_name": "Notre Dame Regional Secondary", "geom": {"type": "Feature", "geometry": {"coordinates": [-123.04556662808874, 49.275802839348714], "type": "Point"}, "properties": {}}, "geo_local_area": "Hastings-Sunrise", "geo_point_2d": {"lon": -123.04556662808874, "lat": 49.275802839348714}},{"address": "575 Slocan St", "school_category": "Independent School", "school_name": "Our Lady of Sorrows", "geom": {"type": "Feature", "geometry": {"coordinates": [-123.05015370472844, 49.27957121602082], "type": "Point"}, "properties": {}}, "geo_local_area": "Hastings-Sunrise", "geo_point_2d": {"lon": -123.05015370472844, "lat": 49.27957121602082}},{"address": "4275 Crown St", "school_category": "Public School", "school_name": "Queen Elizabeth Annex", "geom": {"type": "Feature", "geometry": {"coordinates": [-123.19469107, 49.24893677906758], "type": "Point"}, "properties": {}}, "geo_local_area": "Dunbar-Southlands", "geo_point_2d": {"lon": -123.19469107, "lat": 49.24893677906758}},{"address": "1430 Lillooet St", "school_category": "Public School", "school_name": "Sir Matthew Begbie Elementary", "geom": {"type": "Feature", "geometry": {"coordinates": [-123.03801003712412, 49.27183079984159], "type": "Point"}, "properties": {}}, "geo_local_area": "Hastings-Sunrise", "geo_point_2d": {"lon": -123.03801003712412, "lat": 49.27183079984159}},{"address": "590 W 65th Av", "school_category": "Public School", "school_name": "Sir Wilfrid Laurier Annex", "geom": {"type": "Feature", "geometry": {"coordinates": [-123.11944529999998, 49.210717995067405], "type": "Point"}, "properties": {}}, "geo_local_area": "Marpole", "geo_point_2d": {"lon": -123.11944529999998, "lat": 49.210717995067405}},{"address": "5970 Selkirk St", "school_category": "Public School", "school_name": "Sir William Osler Elementary", "geom": {"type": "Feature", "geometry": {"coordinates": [-123.13266216000001, 49.23076242206749], "type": "Point"}, "properties": {}}, "geo_local_area": "Oakridge", "geo_point_2d": {"lon": -123.13266216000001, "lat": 49.23076242206749}},{"address": "5351 Camosun St", "school_category": "Public School", "school_name": "Southlands Elementary", "geom": {"type": "Feature", "geometry": {"coordinates": [-123.19781516, 49.23813758506754], "type": "Point"}, "properties": {}}, "geo_local_area": "Dunbar-Southlands", "geo_point_2d": {"lon": -123.19781516, "lat": 49.23813758506754}},{"address": "2145 W 8th Av", "school_category": "Independent School", "school_name": "St Augustine's", "geom": {"type": "Feature", "geometry": {"coordinates": [-123.15355224259545, 49.26517255153582], "type": "Point"}, "properties": {}}, "geo_local_area": "Kitsilano", "geo_point_2d": {"lon": -123.15355224259545, "lat": 49.26517255153582}},{"address": "1000 E 59th Av", "school_category": "StrongStart BC", "school_name": "Walter Moberly StrongStart Centre", "geom": {"type": "Feature", "geometry": {"coordinates": [-123.08434542, 49.216109230067424], "type": "Point"}, "properties": {}}, "geo_local_area": "Sunset", "geo_point_2d": {"lon": -123.08434542, "lat": 49.216109230067424}},{"address": "3155 E 27th Av", "school_category": "Public School", "school_name": "Windermere Community Secondary", "geom": {"type": "Feature", "geometry": {"coordinates": [-123.0371743, 49.246512456067585], "type": "Point"}, "properties": {}}, "geo_local_area": "Renfrew-Collingwood", "geo_point_2d": {"lon": -123.0371743, "lat": 49.246512456067585}},{"address": "1110 Cotton Drive", "school_category": "Public School", "school_name": "Britannia Community Elementary", "geom": {"type": "Feature", "geometry": {"coordinates": [-123.07137879542154, 49.27451200859733], "type": "Point"}, "properties": {}}, "geo_local_area": "Grandview-Woodland", "geo_point_2d": {"lon": -123.07137879542154, "lat": 49.27451200859733}},{"address": "7835 Champlain Crescent", "school_category": "StrongStart BC", "school_name": "Champlain Heights Annex StrongStart Cntr", "geom": {"type": "Feature", "geometry": {"coordinates": [-123.03054968939806, 49.2140784317513], "type": "Point"}, "properties": {}}, "geo_local_area": "Killarney", "geo_point_2d": {"lon": -123.03054968939806, "lat": 49.2140784317513}},{"address": "6100 Battison St", "school_category": "Public School", "school_name": "Dr H N MacCorkindale Elementary", "geom": {"type": "Feature", "geometry": {"coordinates": [-123.02935503511594, 49.22799018553298], "type": "Point"}, "properties": {}}, "geo_local_area": "Killarney", "geo_point_2d": {"lon": -123.02935503511594, "lat": 49.22799018553298}},{"address": "2055 Woodland Dr", "school_category": "Public School", "school_name": "Grandview Elementary", "geom": {"type": "Feature", "geometry": {"coordinates": [-123.0743697, 49.266193169067684], "type": "Point"}, "properties": {}}, "geo_local_area": "Grandview-Woodland", "geo_point_2d": {"lon": -123.0743697, "lat": 49.266193169067684}},{"address": "2500 Lakewood Drive", "school_category": "Public School", "school_name": "Laura Secord Elementary", "geom": {"type": "Feature", "geometry": {"coordinates": [-123.06022338, 49.26173570306765], "type": "Point"}, "properties": {}}, "geo_local_area": "Kensington-Cedar Cottage", "geo_point_2d": {"lon": -123.06022338, "lat": 49.26173570306765}},{"address": "2250 Eddington Drive", "school_category": "Public School", "school_name": "Prince of Wales Secondary", "geom": {"type": "Feature", "geometry": {"coordinates": [-123.15953565, 49.24498305306758], "type": "Point"}, "properties": {}}, "geo_local_area": "Arbutus Ridge", "geo_point_2d": {"lon": -123.15953565, "lat": 49.24498305306758}},{"address": "3323 Wellington Av", "school_category": "StrongStart BC", "school_name": "Sir Wilfred Grenfell StrongStart Centre", "geom": {"type": "Feature", "geometry": {"coordinates": [-123.0348073745407, 49.242891620676865], "type": "Point"}, "properties": {}}, "geo_local_area": "Renfrew-Collingwood", "geo_point_2d": {"lon": -123.0348073745407, "lat": 49.242891620676865}},{"address": "2450 Cambridge St", "school_category": "Public School", "school_name": "Tillicum Community Annex", "geom": {"type": "Feature", "geometry": {"coordinates": [-123.05559853, 49.28626345506777], "type": "Point"}, "properties": {}}, "geo_local_area": "Hastings-Sunrise", "geo_point_2d": {"lon": -123.05559853, "lat": 49.28626345506777}},{"address": "998 W 26th Av", "school_category": "Independent School", "school_name": "Vancouver Talmud Torah Elementary", "geom": {"type": "Feature", "geometry": {"coordinates": [-123.12682202118758, 49.2475796718668], "type": "Point"}, "properties": {}}, "geo_local_area": "South Cambie", "geo_point_2d": {"lon": -123.12682202118758, "lat": 49.2475796718668}},{"address": "1130 Keefer St", "school_category": "Public School", "school_name": "Admiral Seymour Elementary", "geom": {"type": "Feature", "geometry": {"coordinates": [-123.08031429999998, 49.27859426906773], "type": "Point"}, "properties": {}}, "geo_local_area": "Strathcona", "geo_point_2d": {"lon": -123.08031429999998, "lat": 49.27859426906773}},{"address": "1351 Hornby St", "school_category": "Independent School", "school_name": "Anchor Point Montessori", "geom": {"type": "Feature", "geometry": {"coordinates": [-123.13091892226645, 49.277061847359775], "type": "Point"}, "properties": {}}, "geo_local_area": "Downtown", "geo_point_2d": {"lon": -123.13091892226645, "lat": 49.277061847359775}},{"address": "5025 Willow St", "school_category": "Public School", "school_name": "BCCH Eating Disorders School Program", "geom": {"type": "Feature", "geometry": {"coordinates": [-123.12579095999999, 49.23963096106753], "type": "Point"}, "properties": {}}, "geo_local_area": "South Cambie", "geo_point_2d": {"lon": -123.12579095999999, "lat": 49.23963096106753}},{"address": "3020 Heather St", "school_category": "Independent School", "school_name": "Blessed Sacrament School", "geom": {"type": "Feature", "geometry": {"coordinates": [-123.1193909103338, 49.2583379074734], "type": "Point"}, "properties": {}}, "geo_local_area": "Fairview", "geo_point_2d": {"lon": -123.1193909103338, "lat": 49.2583379074734}},{"address": "1788 W Broadway", "school_category": "Independent School", "school_name": "Century High School", "geom": {"type": "Feature", "geometry": {"coordinates": [-123.14531440269688, 49.263384758081116], "type": "Point"}, "properties": {}}, "geo_local_area": "Fairview", "geo_point_2d": {"lon": -123.14531440269688, "lat": 49.263384758081116}},{"address": "2882 E 4th Av", "school_category": "Public School", "school_name": "Chief Maquinna Annex", "geom": {"type": "Feature", "geometry": {"coordinates": [-123.04511809000002, 49.266421543067686], "type": "Point"}, "properties": {}}, "geo_local_area": "Hastings-Sunrise", "geo_point_2d": {"lon": -123.04511809000002, "lat": 49.266421543067686}},{"address": "55 Expo Blvd", "school_category": "Public School", "school_name": "Crosstown Elementary", "geom": {"type": "Feature", "geometry": {"coordinates": [-123.106594, 49.27863099906775], "type": "Point"}, "properties": {}}, "geo_local_area": "Downtown", "geo_point_2d": {"lon": -123.106594, "lat": 49.27863099906775}},{"address": "2740 Guelph St", "school_category": "Public School", "school_name": "Florence Nightingale Elementary", "geom": {"type": "Feature", "geometry": {"coordinates": [-123.09371757, 49.260059324067655], "type": "Point"}, "properties": {}}, "geo_local_area": "Mount Pleasant", "geo_point_2d": {"lon": -123.09371757, "lat": 49.260059324067655}},{"address": "4251 Ontario St", "school_category": "Public School", "school_name": "General Wolfe Elementary", "geom": {"type": "Feature", "geometry": {"coordinates": [-123.10596494, 49.247228706067595], "type": "Point"}, "properties": {}}, "geo_local_area": "Riley Park", "geo_point_2d": {"lon": -123.10596494, "lat": 49.247228706067595}},{"address": "5555 Carnarvon St", "school_category": "Public School", "school_name": "Kerrisdale Elementary", "geom": {"type": "Feature", "geometry": {"coordinates": [-123.17345921, 49.23616824506754], "type": "Point"}, "properties": {}}, "geo_local_area": "Dunbar-Southlands", "geo_point_2d": {"lon": -123.17345921, "lat": 49.23616824506754}},{"address": "6454 Killarney St", "school_category": "Public School", "school_name": "Killarney Secondary", "geom": {"type": "Feature", "geometry": {"coordinates": [-123.04415722000002, 49.22530010406748], "type": "Point"}, "properties": {}}, "geo_local_area": "Killarney", "geo_point_2d": {"lon": -123.04415722000002, "lat": 49.22530010406748}},{"address": "592 E Pender St", "school_category": "Public School", "school_name": "Lord Strathcona Community Elementary", "geom": {"type": "Feature", "geometry": {"coordinates": [-123.09147679242075, 49.27981151466552], "type": "Point"}, "properties": {}}, "geo_local_area": "Strathcona", "geo_point_2d": {"lon": -123.09147679242075, "lat": 49.27981151466552}},{"address": "1950 E Hastings St", "school_category": "StrongStart BC", "school_name": "MacDonald StrongStart Centre", "geom": {"type": "Feature", "geometry": {"coordinates": [-123.06467911, 49.280723909067746], "type": "Point"}, "properties": {}}, "geo_local_area": "Grandview-Woodland", "geo_point_2d": {"lon": -123.06467911, "lat": 49.280723909067746}},{"address": "6199 Cypress St", "school_category": "Public School", "school_name": "Maple Grove Elementary", "geom": {"type": "Feature", "geometry": {"coordinates": [-123.15151486, 49.22940869906749], "type": "Point"}, "properties": {}}, "geo_local_area": "Kerrisdale", "geo_point_2d": {"lon": -123.15151486, "lat": 49.22940869906749}},{"address": "5750 Oak St", "school_category": "Independent School", "school_name": "Pacific Torah Institute", "geom": {"type": "Feature", "geometry": {"coordinates": [-123.12761225509908, 49.23342156632536], "type": "Point"}, "properties": {}}, "geo_local_area": "Oakridge", "geo_point_2d": {"lon": -123.12761225509908, "lat": 49.23342156632536}},{"address": "5350 East Boulevard", "school_category": "Public School", "school_name": "Point Grey Secondary", "geom": {"type": "Feature", "geometry": {"coordinates": [-123.15343060436416, 49.23728903611385], "type": "Point"}, "properties": {}}, "geo_local_area": "Shaughnessy", "geo_point_2d": {"lon": -123.15343060436416, "lat": 49.23728903611385}},{"address": "4750 St. Catherines St", "school_category": "Public School", "school_name": "Sir Richard McBride Annex", "geom": {"type": "Feature", "geometry": {"coordinates": [-123.08495018892324, 49.241944229212045], "type": "Point"}, "properties": {}}, "geo_local_area": "Kensington-Cedar Cottage", "geo_point_2d": {"lon": -123.08495018892324, "lat": 49.241944229212045}},{"address": "1885 W Broadway", "school_category": "Independent School", "school_name": "St John's International", "geom": {"type": "Feature", "geometry": {"coordinates": [-123.14789881614395, 49.2640409804403], "type": "Point"}, "properties": {}}, "geo_local_area": "Kitsilano", "geo_point_2d": {"lon": -123.14789881614395, "lat": 49.2640409804403}},{"address": "1551 E 37th Av", "school_category": "Public School", "school_name": "Tecumseh Annex", "geom": {"type": "Feature", "geometry": {"coordinates": [-123.07309884, 49.23711627206752], "type": "Point"}, "properties": {}}, "geo_local_area": "Kensington-Cedar Cottage", "geo_point_2d": {"lon": -123.07309884, "lat": 49.23711627206752}},{"address": "2450 Cambridge St", "school_category": "StrongStart BC", "school_name": "Tillicum Annex StrongStart Centre", "geom": {"type": "Feature", "geometry": {"coordinates": [-123.05559853, 49.28626345506777], "type": "Point"}, "properties": {}}, "geo_local_area": "Hastings-Sunrise", "geo_point_2d": {"lon": -123.05559853, "lat": 49.28626345506777}},{"address": "530 E 41st Av", "school_category": "Public School", "school_name": "Vancouver Learning Network", "geom": {"type": "Feature", "geometry": {"coordinates": [-123.09279776, 49.23195715006752], "type": "Point"}, "properties": {}}, "geo_local_area": "Sunset", "geo_point_2d": {"lon": -123.09279776, "lat": 49.23195715006752}}]